[{"routeId":"Red","directionId":0,"stops":[{"id":"place-alfcl","parentId":"place-alfcl","name":"Alewife","lat":42.39583,"lng":-71.141287},{"id":"place-davis","parentId":"place-davis","name":"Davis","lat":42.39674,"lng":-71.121815},{"id":"place-portr","parentId":"place-portr","name":"Porter","lat":42.3884,"lng":-71.119149},{"id":"place-harsq","parentId":"place-harsq","name":"Harvard","lat":42.373362,"lng":-71.118956},{"id":"place-cntsq","parentId":"place-cntsq","name":"Central","lat":42.365486,"lng":-71.103802},{"id":"place-knncl","parentId":"place-knncl","name":"Kendall/MIT","lat":42.3624908,"lng":-71.0861765},{"id":"place-chmnl","parentId":"place-chmnl","name":"Charles/MGH","lat":42.361166,"lng":-71.070628},{"id":"place-pktrm","parentId":"place-pktrm","name":"Park Street","lat":42.3563946,"lng":-71.0624242},{"id":"place-dwnxg","parentId":"place-dwnxg","name":"Downtown Crossing","lat":42.355518,"lng":-71.060225},{"id":"place-sstat","parentId":"place-sstat","name":"South Station","lat":42.352271,"lng":-71.055242},{"id":"place-brdwy","parentId":"place-brdwy","name":"Broadway","lat":42.342622,"lng":-71.056967},{"id":"place-andrw","parentId":"place-andrw","name":"Andrew","lat":42.330154,"lng":-71.057655},{"id":"place-jfk","parentId":"place-jfk","name":"JFK/UMass","lat":42.320685,"lng":-71.052391},{"id":"place-shmnl","parentId":"place-shmnl","name":"Savin Hill","lat":42.31129,"lng":-71.053331},{"id":"place-fldcr","parentId":"place-fldcr","name":"Fields Corner","lat":42.300093,"lng":-71.061667},{"id":"place-smmnl","parentId":"place-smmnl","name":"Shawmut","lat":42.2931258,"lng":-71.065738},{"id":"place-asmnl","parentId":"place-asmnl","name":"Ashmont","lat":42.28452,"lng":-71.063777},{"id":"place-nqncy","parentId":"place-nqncy","name":"North Quincy","lat":42.275275,"lng":-71.029583},{"id":"place-wlsta","parentId":"place-wlsta","name":"Wollaston","lat":42.2665139,"lng":-71.0203369},{"id":"place-qnctr","parentId":"place-qnctr","name":"Quincy Center","lat":42.251809,"lng":-71.005409},{"id":"place-qamnl","parentId":"place-qamnl","name":"Quincy Adams","lat":42.233391,"lng":-71.007153},{"id":"place-brntn","parentId":"place-brntn","name":"Braintree","lat":42.2078543,"lng":-71.0011385}]},{"routeId":"Red","directionId":1,"stops":[{"id":"place-brntn","parentId":"place-brntn","name":"Braintree","lat":42.2078543,"lng":-71.0011385},{"id":"place-qamnl","parentId":"place-qamnl","name":"Quincy Adams","lat":42.233391,"lng":-71.007153},{"id":"place-qnctr","parentId":"place-qnctr","name":"Quincy Center","lat":42.251809,"lng":-71.005409},{"id":"place-wlsta","parentId":"place-wlsta","name":"Wollaston","lat":42.2665139,"lng":-71.0203369},{"id":"place-nqncy","parentId":"place-nqncy","name":"North Quincy","lat":42.275275,"lng":-71.029583},{"id":"place-asmnl","parentId":"place-asmnl","name":"Ashmont","lat":42.28452,"lng":-71.063777},{"id":"place-smmnl","parentId":"place-smmnl","name":"Shawmut","lat":42.2931258,"lng":-71.065738},{"id":"place-fldcr","parentId":"place-fldcr","name":"Fields Corner","lat":42.300093,"lng":-71.061667},{"id":"place-shmnl","parentId":"place-shmnl","name":"Savin Hill","lat":42.31129,"lng":-71.053331},{"id":"place-jfk","parentId":"place-jfk","name":"JFK/UMass","lat":42.320685,"lng":-71.052391},{"id":"place-andrw","parentId":"place-andrw","name":"Andrew","lat":42.330154,"lng":-71.057655},{"id":"place-brdwy","parentId":"place-brdwy","name":"Broadway","lat":42.342622,"lng":-71.056967},{"id":"place-sstat","parentId":"place-sstat","name":"South Station","lat":42.352271,"lng":-71.055242},{"id":"place-dwnxg","parentId":"place-dwnxg","name":"Downtown Crossing","lat":42.355518,"lng":-71.060225},{"id":"place-pktrm","parentId":"place-pktrm","name":"Park Street","lat":42.3563946,"lng":-71.0624242},{"id":"place-chmnl","parentId":"place-chmnl","name":"Charles/MGH","lat":42.361166,"lng":-71.070628},{"id":"place-knncl","parentId":"place-knncl","name":"Kendall/MIT","lat":42.3624908,"lng":-71.0861765},{"id":"place-cntsq","parentId":"place-cntsq","name":"Central","lat":42.365486,"lng":-71.103802},{"id":"place-harsq","parentId":"place-harsq","name":"Harvard","lat":42.373362,"lng":-71.118956},{"id":"place-portr","parentId":"place-portr","name":"Porter","lat":42.3884,"lng":-71.119149},{"id":"place-davis","parentId":"place-davis","name":"Davis","lat":42.39674,"lng":-71.121815},{"id":"place-alfcl","parentId":"place-alfcl","name":"Alewife","lat":42.39583,"lng":-71.141287}]},{"routeId":"Orange","directionId":0,"stops":[{"id":"place-ogmnl","parentId":"place-ogmnl","name":"Oak Grove","lat":42.43668,"lng":-71.071097},{"id":"place-mlmnl","parentId":"place-mlmnl","name":"Malden Center","lat":42.426632,"lng":-71.07411},{"id":"place-welln","parentId":"place-welln","name":"Wellington","lat":42.40237,"lng":-71.077082},{"id":"place-astao","parentId":"place-astao","name":"Assembly","lat":42.392811,"lng":-71.077257},{"id":"place-sull","parentId":"place-sull","name":"Sullivan Square","lat":42.383975,"lng":-71.076994},{"id":"place-ccmnl","parentId":"place-ccmnl","name":"Community College","lat":42.373622,"lng":-71.069533},{"id":"place-north","parentId":"place-north","name":"North Station","lat":42.365577,"lng":-71.06129},{"id":"place-haecl","parentId":"place-haecl","name":"Haymarket","lat":42.363021,"lng":-71.05829},{"id":"place-state","parentId":"place-state","name":"State","lat":42.358978,"lng":-71.057598},{"id":"place-dwnxg","parentId":"place-dwnxg","name":"Downtown Crossing","lat":42.355518,"lng":-71.060225},{"id":"place-chncl","parentId":"place-chncl","name":"Chinatown","lat":42.352547,"lng":-71.062752},{"id":"place-tumnl","parentId":"place-tumnl","name":"Tufts Medical Center","lat":42.349662,"lng":-71.063917},{"id":"place-bbsta","parentId":"place-bbsta","name":"Back Bay","lat":42.34735,"lng":-71.075727},{"id":"place-masta","parentId":"place-masta","name":"Massachusetts Avenue","lat":42.341512,"lng":-71.083423},{"id":"place-rugg","parentId":"place-rugg","name":"Ruggles","lat":42.336377,"lng":-71.088961},{"id":"place-rcmnl","parentId":"place-rcmnl","name":"Roxbury Crossing","lat":42.331397,"lng":-71.095451},{"id":"place-jaksn","parentId":"place-jaksn","name":"Jackson Square","lat":42.323132,"lng":-71.099592},{"id":"place-sbmnl","parentId":"place-sbmnl","name":"Stony Brook","lat":42.317062,"lng":-71.104248},{"id":"place-grnst","parentId":"place-grnst","name":"Green Street","lat":42.310525,"lng":-71.107414},{"id":"place-forhl","parentId":"place-forhl","name":"Forest Hills","lat":42.300713,"lng":-71.113943}]},{"routeId":"Orange","directionId":1,"stops":[{"id":"place-forhl","parentId":"place-forhl","name":"Forest Hills","lat":42.300713,"lng":-71.113943},{"id":"place-grnst","parentId":"place-grnst","name":"Green Street","lat":42.310525,"lng":-71.107414},{"id":"place-sbmnl","parentId":"place-sbmnl","name":"Stony Brook","lat":42.317062,"lng":-71.104248},{"id":"place-jaksn","parentId":"place-jaksn","name":"Jackson Square","lat":42.323132,"lng":-71.099592},{"id":"place-rcmnl","parentId":"place-rcmnl","name":"Roxbury Crossing","lat":42.331397,"lng":-71.095451},{"id":"place-rugg","parentId":"place-rugg","name":"Ruggles","lat":42.336377,"lng":-71.088961},{"id":"place-masta","parentId":"place-masta","name":"Massachusetts Avenue","lat":42.341512,"lng":-71.083423},{"id":"place-bbsta","parentId":"place-bbsta","name":"Back Bay","lat":42.34735,"lng":-71.075727},{"id":"place-tumnl","parentId":"place-tumnl","name":"Tufts Medical Center","lat":42.349662,"lng":-71.063917},{"id":"place-chncl","parentId":"place-chncl","name":"Chinatown","lat":42.352547,"lng":-71.062752},{"id":"place-dwnxg","parentId":"place-dwnxg","name":"Downtown Crossing","lat":42.355518,"lng":-71.060225},{"id":"place-state","parentId":"place-state","name":"State","lat":42.358978,"lng":-71.057598},{"id":"place-haecl","parentId":"place-haecl","name":"Haymarket","lat":42.363021,"lng":-71.05829},{"id":"place-north","parentId":"place-north","name":"North Station","lat":42.365577,"lng":-71.06129},{"id":"place-ccmnl","parentId":"place-ccmnl","name":"Community College","lat":42.373622,"lng":-71.069533},{"id":"place-sull","parentId":"place-sull","name":"Sullivan Square","lat":42.383975,"lng":-71.076994},{"id":"place-astao","parentId":"place-astao","name":"Assembly","lat":42.392811,"lng":-71.077257},{"id":"place-welln","parentId":"place-welln","name":"Wellington","lat":42.40237,"lng":-71.077082},{"id":"place-mlmnl","parentId":"place-mlmnl","name":"Malden Center","lat":42.426632,"lng":-71.07411},{"id":"place-ogmnl","parentId":"place-ogmnl","name":"Oak Grove","lat":42.43668,"lng":-71.071097}]},{"routeId":"Blue","directionId":0,"stops":[{"id":"place-wondl","parentId":"place-wondl","name":"Wonderland","lat":42.41342,"lng":-70.991648},{"id":"place-rbmnl","parentId":"place-rbmnl","name":"Revere Beach","lat":42.4078425,"lng":-70.9925332},{"id":"place-bmmnl","parentId":"place-bmmnl","name":"Beachmont","lat":42.3975423,"lng":-70.9923194},{"id":"place-sdmnl","parentId":"place-sdmnl","name":"Suffolk Downs","lat":42.3905007,"lng":-70.9971226},{"id":"place-orhte","parentId":"place-orhte","name":"Orient Heights","lat":42.386867,"lng":-71.004736},{"id":"place-wimnl","parentId":"place-wimnl","name":"Wood Island","lat":42.3796403,"lng":-71.0228654},{"id":"place-aport","parentId":"place-aport","name":"Airport","lat":42.374262,"lng":-71.030395},{"id":"place-mvbcl","parentId":"place-mvbcl","name":"Maverick","lat":42.3691186,"lng":-71.0395296},{"id":"place-aqucl","parentId":"place-aqucl","name":"Aquarium","lat":42.359784,"lng":-71.051652},{"id":"place-state","parentId":"place-state","name":"State","lat":42.358978,"lng":-71.057598},{"id":"place-gover","parentId":"place-gover","name":"Government Center","lat":42.359705,"lng":-71.059215},{"id":"place-bomnl","parentId":"place-bomnl","name":"Bowdoin","lat":42.361365,"lng":-71.062037}]},{"routeId":"Blue","directionId":1,"stops":[{"id":"place-bomnl","parentId":"place-bomnl","name":"Bowdoin","lat":42.361365,"lng":-71.062037},{"id":"place-gover","parentId":"place-gover","name":"Government Center","lat":42.359705,"lng":-71.059215},{"id":"place-state","parentId":"place-state","name":"State","lat":42.358978,"lng":-71.057598},{"id":"place-aqucl","parentId":"place-aqucl","name":"Aquarium","lat":42.359784,"lng":-71.051652},{"id":"place-mvbcl","parentId":"place-mvbcl","name":"Maverick","lat":42.3691186,"lng":-71.0395296},{"id":"place-aport","parentId":"place-aport","name":"Airport","lat":42.374262,"lng":-71.030395},{"id":"place-wimnl","parentId":"place-wimnl","name":"Wood Island","lat":42.3796403,"lng":-71.0228654},{"id":"place-orhte","parentId":"place-orhte","name":"Orient Heights","lat":42.386867,"lng":-71.004736},{"id":"place-sdmnl","parentId":"place-sdmnl","name":"Suffolk Downs","lat":42.3905007,"lng":-70.9971226},{"id":"place-bmmnl","parentId":"place-bmmnl","name":"Beachmont","lat":42.3975423,"lng":-70.9923194},{"id":"place-rbmnl","parentId":"place-rbmnl","name":"Revere Beach","lat":42.4078425,"lng":-70.9925332},{"id":"place-wondl","parentId":"place-wondl","name":"Wonderland","lat":42.41342,"lng":-70.991648}]},{"routeId":"Green-B","directionId":0,"stops":[{"id":"place-gover","parentId":"place-gover","name":"Government Center","lat":42.359705,"lng":-71.059215},{"id":"place-pktrm","parentId":"place-pktrm","name":"Park Street","lat":42.3563946,"lng":-71.0624242},{"id":"place-boyls","parentId":"place-boyls","name":"Boylston","lat":42.35302,"lng":-71.06459},{"id":"place-armnl","parentId":"place-armnl","name":"Arlington","lat":42.351902,"lng":-71.070893},{"id":"place-coecl","parentId":"place-coecl","name":"Copley","lat":42.349974,"lng":-71.077447},{"id":"place-hymnl","parentId":"place-hymnl","name":"Hynes Convention Center","lat":42.347888,"lng":-71.087903},{"id":"place-kencl","parentId":"place-kencl","name":"Kenmore","lat":42.348949,"lng":-71.095169},{"id":"place-bland","parentId":"place-bland","name":"Blandford Street","lat":42.349293,"lng":-71.100258},{"id":"place-buest","parentId":"place-buest","name":"Boston University East","lat":42.349735,"lng":-71.103889},{"id":"place-bucen","parentId":"place-bucen","name":"Boston University Central","lat":42.350082,"lng":-71.106865},{"id":"place-amory","parentId":"place-amory","name":"Amory Street","lat":42.350992,"lng":-71.114748},{"id":"place-babck","parentId":"place-babck","name":"Babcock Street","lat":42.351616,"lng":-71.119924},{"id":"place-brico","parentId":"place-brico","name":"Packard's Corner","lat":42.351967,"lng":-71.125031},{"id":"place-harvd","parentId":"place-harvd","name":"Harvard Avenue","lat":42.350243,"lng":-71.131355},{"id":"place-grigg","parentId":"place-grigg","name":"Griggs Street","lat":42.348545,"lng":-71.134949},{"id":"place-alsgr","parentId":"place-alsgr","name":"Allston Street","lat":42.348701,"lng":-71.137955},{"id":"place-wrnst","parentId":"place-wrnst","name":"Warren Street","lat":42.348343,"lng":-71.140457},{"id":"place-wascm","parentId":"place-wascm","name":"Washington Street","lat":42.343864,"lng":-71.142853},{"id":"place-sthld","parentId":"place-sthld","name":"Sutherland Road","lat":42.341614,"lng":-71.146202},{"id":"place-chswk","parentId":"place-chswk","name":"Chiswick Road","lat":42.340805,"lng":-71.150711},{"id":"place-chill","parentId":"place-chill","name":"Chestnut Hill Avenue","lat":42.338169,"lng":-71.15316},{"id":"place-sougr","parentId":"place-sougr","name":"South Street","lat":42.3396,"lng":-71.157661},{"id":"place-lake","parentId":"place-lake","name":"Boston College","lat":42.340081,"lng":-71.166769}]},{"routeId":"Green-B","directionId":1,"stops":[{"id":"place-lake","parentId":"place-lake","name":"Boston College","lat":42.340081,"lng":-71.166769},{"id":"place-sougr","parentId":"place-sougr","name":"South Street","lat":42.3396,"lng":-71.157661},{"id":"place-chill","parentId":"place-chill","name":"Chestnut Hill Avenue","lat":42.338169,"lng":-71.15316},{"id":"place-chswk","parentId":"place-chswk","name":"Chiswick Road","lat":42.340805,"lng":-71.150711},{"id":"place-sthld","parentId":"place-sthld","name":"Sutherland Road","lat":42.341614,"lng":-71.146202},{"id":"place-wascm","parentId":"place-wascm","name":"Washington Street","lat":42.343864,"lng":-71.142853},{"id":"place-wrnst","parentId":"place-wrnst","name":"Warren Street","lat":42.348343,"lng":-71.140457},{"id":"place-alsgr","parentId":"place-alsgr","name":"Allston Street","lat":42.348701,"lng":-71.137955},{"id":"place-grigg","parentId":"place-grigg","name":"Griggs Street","lat":42.348545,"lng":-71.134949},{"id":"place-harvd","parentId":"place-harvd","name":"Harvard Avenue","lat":42.350243,"lng":-71.131355},{"id":"place-brico","parentId":"place-brico","name":"Packard's Corner","lat":42.351967,"lng":-71.125031},{"id":"place-babck","parentId":"place-babck","name":"Babcock Street","lat":42.351616,"lng":-71.119924},{"id":"place-amory","parentId":"place-amory","name":"Amory Street","lat":42.350992,"lng":-71.114748},{"id":"place-bucen","parentId":"place-bucen","name":"Boston University Central","lat":42.350082,"lng":-71.106865},{"id":"place-buest","parentId":"place-buest","name":"Boston University East","lat":42.349735,"lng":-71.103889},{"id":"place-bland","parentId":"place-bland","name":"Blandford Street","lat":42.349293,"lng":-71.100258},{"id":"place-kencl","parentId":"place-kencl","name":"Kenmore","lat":42.348949,"lng":-71.095169},{"id":"place-hymnl","parentId":"place-hymnl","name":"Hynes Convention Center","lat":42.347888,"lng":-71.087903},{"id":"place-coecl","parentId":"place-coecl","name":"Copley","lat":42.349974,"lng":-71.077447},{"id":"place-armnl","parentId":"place-armnl","name":"Arlington","lat":42.351902,"lng":-71.070893},{"id":"place-boyls","parentId":"place-boyls","name":"Boylston","lat":42.35302,"lng":-71.06459},{"id":"place-pktrm","parentId":"place-pktrm","name":"Park Street","lat":42.3563946,"lng":-71.0624242},{"id":"place-gover","parentId":"place-gover","name":"Government Center","lat":42.359705,"lng":-71.059215}]},{"routeId":"Green-C","directionId":0,"stops":[{"id":"place-gover","parentId":"place-gover","name":"Government Center","lat":42.359705,"lng":-71.059215},{"id":"place-pktrm","parentId":"place-pktrm","name":"Park Street","lat":42.3563946,"lng":-71.0624242},{"id":"place-boyls","parentId":"place-boyls","name":"Boylston","lat":42.35302,"lng":-71.06459},{"id":"place-armnl","parentId":"place-armnl","name":"Arlington","lat":42.351902,"lng":-71.070893},{"id":"place-coecl","parentId":"place-coecl","name":"Copley","lat":42.349974,"lng":-71.077447},{"id":"place-hymnl","parentId":"place-hymnl","name":"Hynes Convention Center","lat":42.347888,"lng":-71.087903},{"id":"place-kencl","parentId":"place-kencl","name":"Kenmore","lat":42.348949,"lng":-71.095169},{"id":"place-smary","parentId":"place-smary","name":"Saint Mary's Street","lat":42.345974,"lng":-71.107353},{"id":"place-hwsst","parentId":"place-hwsst","name":"Hawes Street","lat":42.344906,"lng":-71.111145},{"id":"place-kntst","parentId":"place-kntst","name":"Kent Street","lat":42.344074,"lng":-71.114197},{"id":"place-stpul","parentId":"place-stpul","name":"Saint Paul Street","lat":42.343327,"lng":-71.116997},{"id":"place-cool","parentId":"place-cool","name":"Coolidge Corner","lat":42.342116,"lng":-71.121263},{"id":"place-sumav","parentId":"place-sumav","name":"Summit Avenue","lat":42.34111,"lng":-71.12561},{"id":"place-bndhl","parentId":"place-bndhl","name":"Brandon Hall","lat":42.340023,"lng":-71.129082},{"id":"place-fbkst","parentId":"place-fbkst","name":"Fairbanks Street","lat":42.339725,"lng":-71.131073},{"id":"place-bcnwa","parentId":"place-bcnwa","name":"Washington Square","lat":42.339394,"lng":-71.13533},{"id":"place-tapst","parentId":"place-tapst","name":"Tappan Street","lat":42.338459,"lng":-71.138702},{"id":"place-denrd","parentId":"place-denrd","name":"Dean Road","lat":42.337807,"lng":-71.141853},{"id":"place-engav","parentId":"place-engav","name":"Englewood Avenue","lat":42.336971,"lng":-71.14566},{"id":"place-clmnl","parentId":"place-clmnl","name":"Cleveland Circle","lat":42.336142,"lng":-71.149326}]},{"routeId":"Green-C","directionId":1,"stops":[{"id":"place-clmnl","parentId":"place-clmnl","name":"Cleveland Circle","lat":42.336142,"lng":-71.149326},{"id":"place-engav","parentId":"place-engav","name":"Englewood Avenue","lat":42.336971,"lng":-71.14566},{"id":"place-denrd","parentId":"place-denrd","name":"Dean Road","lat":42.337807,"lng":-71.141853},{"id":"place-tapst","parentId":"place-tapst","name":"Tappan Street","lat":42.338459,"lng":-71.138702},{"id":"place-bcnwa","parentId":"place-bcnwa","name":"Washington Square","lat":42.339394,"lng":-71.13533},{"id":"place-fbkst","parentId":"place-fbkst","name":"Fairbanks Street","lat":42.339725,"lng":-71.131073},{"id":"place-bndhl","parentId":"place-bndhl","name":"Brandon Hall","lat":42.340023,"lng":-71.129082},{"id":"place-sumav","parentId":"place-sumav","name":"Summit Avenue","lat":42.34111,"lng":-71.12561},{"id":"place-cool","parentId":"place-cool","name":"Coolidge Corner","lat":42.342116,"lng":-71.121263},{"id":"place-stpul","parentId":"place-stpul","name":"Saint Paul Street","lat":42.343327,"lng":-71.116997},{"id":"place-kntst","parentId":"place-kntst","name":"Kent Street","lat":42.344074,"lng":-71.114197},{"id":"place-hwsst","parentId":"place-hwsst","name":"Hawes Street","lat":42.344906,"lng":-71.111145},{"id":"place-smary","parentId":"place-smary","name":"Saint Mary's Street","lat":42.345974,"lng":-71.107353},{"id":"place-kencl","parentId":"place-kencl","name":"Kenmore","lat":42.348949,"lng":-71.095169},{"id":"place-hymnl","parentId":"place-hymnl","name":"Hynes Convention Center","lat":42.347888,"lng":-71.087903},{"id":"place-coecl","parentId":"place-coecl","name":"Copley","lat":42.349974,"lng":-71.077447},{"id":"place-armnl","parentId":"place-armnl","name":"Arlington","lat":42.351902,"lng":-71.070893},{"id":"place-boyls","parentId":"place-boyls","name":"Boylston","lat":42.35302,"lng":-71.06459},{"id":"place-pktrm","parentId":"place-pktrm","name":"Park Street","lat":42.3563946,"lng":-71.0624242},{"id":"place-gover","parentId":"place-gover","name":"Government Center","lat":42.359705,"lng":-71.059215}]},{"routeId":"Green-D","directionId":0,"stops":[{"id":"place-unsqu","parentId":"place-unsqu","name":"Union Square","lat":42.377359,"lng":-71.094761},{"id":"place-lech","parentId":"place-lech","name":"Lechmere","lat":42.371572,"lng":-71.076584},{"id":"place-spmnl","parentId":"place-spmnl","name":"Science Park/West End","lat":42.366664,"lng":-71.067666},{"id":"place-north","parentId":"place-north","name":"North Station","lat":42.365577,"lng":-71.06129},{"id":"place-haecl","parentId":"place-haecl","name":"Haymarket","lat":42.363021,"lng":-71.05829},{"id":"place-gover","parentId":"place-gover","name":"Government Center","lat":42.359705,"lng":-71.059215},{"id":"place-pktrm","parentId":"place-pktrm","name":"Park Street","lat":42.3563946,"lng":-71.0624242},{"id":"place-boyls","parentId":"place-boyls","name":"Boylston","lat":42.35302,"lng":-71.06459},{"id":"place-armnl","parentId":"place-armnl","name":"Arlington","lat":42.351902,"lng":-71.070893},{"id":"place-coecl","parentId":"place-coecl","name":"Copley","lat":42.349974,"lng":-71.077447},{"id":"place-hymnl","parentId":"place-hymnl","name":"Hynes Convention Center","lat":42.347888,"lng":-71.087903},{"id":"place-kencl","parentId":"place-kencl","name":"Kenmore","lat":42.348949,"lng":-71.095169},{"id":"place-fenwy","parentId":"place-fenwy","name":"Fenway","lat":42.345403,"lng":-71.104213},{"id":"place-longw","parentId":"place-longw","name":"Longwood","lat":42.341702,"lng":-71.109956},{"id":"place-bvmnl","parentId":"place-bvmnl","name":"Brookline Village","lat":42.332608,"lng":-71.116857},{"id":"place-brkhl","parentId":"place-brkhl","name":"Brookline Hills","lat":42.331316,"lng":-71.126683},{"id":"place-bcnfd","parentId":"place-bcnfd","name":"Beaconsfield","lat":42.335765,"lng":-71.140455},{"id":"place-rsmnl","parentId":"place-rsmnl","name":"Reservoir","lat":42.335088,"lng":-71.148758},{"id":"place-chhil","parentId":"place-chhil","name":"Chestnut Hill","lat":42.326753,"lng":-71.164699},{"id":"place-newto","parentId":"place-newto","name":"Newton Centre","lat":42.329443,"lng":-71.192414},{"id":"place-newtn","parentId":"place-newtn","name":"Newton Highlands","lat":42.322381,"lng":-71.205509},{"id":"place-eliot","parentId":"place-eliot","name":"Eliot","lat":42.319045,"lng":-71.216684},{"id":"place-waban","parentId":"place-waban","name":"Waban","lat":42.325845,"lng":-71.230609},{"id":"place-woodl","parentId":"place-woodl","name":"Woodland","lat":42.332902,"lng":-71.243362},{"id":"place-river","parentId":"place-river","name":"Riverside","lat":42.337352,"lng":-71.252685}]},{"routeId":"Green-D","directionId":1,"stops":[{"id":"place-river","parentId":"place-river","name":"Riverside","lat":42.337352,"lng":-71.252685},{"id":"place-woodl","parentId":"place-woodl","name":"Woodland","lat":42.332902,"lng":-71.243362},{"id":"place-waban","parentId":"place-waban","name":"Waban","lat":42.325845,"lng":-71.230609},{"id":"place-eliot","parentId":"place-eliot","name":"Eliot","lat":42.319045,"lng":-71.216684},{"id":"place-newtn","parentId":"place-newtn","name":"Newton Highlands","lat":42.322381,"lng":-71.205509},{"id":"place-newto","parentId":"place-newto","name":"Newton Centre","lat":42.329443,"lng":-71.192414},{"id":"place-chhil","parentId":"place-chhil","name":"Chestnut Hill","lat":42.326753,"lng":-71.164699},{"id":"place-rsmnl","parentId":"place-rsmnl","name":"Reservoir","lat":42.335088,"lng":-71.148758},{"id":"place-bcnfd","parentId":"place-bcnfd","name":"Beaconsfield","lat":42.335765,"lng":-71.140455},{"id":"place-brkhl","parentId":"place-brkhl","name":"Brookline Hills","lat":42.331316,"lng":-71.126683},{"id":"place-bvmnl","parentId":"place-bvmnl","name":"Brookline Village","lat":42.332608,"lng":-71.116857},{"id":"place-longw","parentId":"place-longw","name":"Longwood","lat":42.341702,"lng":-71.109956},{"id":"place-fenwy","parentId":"place-fenwy","name":"Fenway","lat":42.345403,"lng":-71.104213},{"id":"place-kencl","parentId":"place-kencl","name":"Kenmore","lat":42.348949,"lng":-71.095169},{"id":"place-hymnl","parentId":"place-hymnl","name":"Hynes Convention Center","lat":42.347888,"lng":-71.087903},{"id":"place-coecl","parentId":"place-coecl","name":"Copley","lat":42.349974,"lng":-71.077447},{"id":"place-armnl","parentId":"place-armnl","name":"Arlington","lat":42.351902,"lng":-71.070893},{"id":"place-boyls","parentId":"place-boyls","name":"Boylston","lat":42.35302,"lng":-71.06459},{"id":"place-pktrm","parentId":"place-pktrm","name":"Park Street","lat":42.3563946,"lng":-71.0624242},{"id":"place-gover","parentId":"place-gover","name":"Government Center","lat":42.359705,"lng":-71.059215},{"id":"place-haecl","parentId":"place-haecl","name":"Haymarket","lat":42.363021,"lng":-71.05829},{"id":"place-north","parentId":"place-north","name":"North Station","lat":42.365577,"lng":-71.06129},{"id":"place-spmnl","parentId":"place-spmnl","name":"Science Park/West End","lat":42.366664,"lng":-71.067666},{"id":"place-lech","parentId":"place-lech","name":"Lechmere","lat":42.371572,"lng":-71.076584},{"id":"place-unsqu","parentId":"place-unsqu","name":"Union Square","lat":42.377359,"lng":-71.094761}]},{"routeId":"Green-E","directionId":0,"stops":[{"id":"place-mdftf","parentId":"place-mdftf","name":"Medford/Tufts","lat":42.407975,"lng":-71.117044},{"id":"place-balsq","parentId":"place-balsq","name":"Ball Square","lat":42.399889,"lng":-71.111003},{"id":"place-mgngl","parentId":"place-mgngl","name":"Magoun Square","lat":42.393682,"lng":-71.1063879},{"id":"place-gilmn","parentId":"place-gilmn","name":"Gilman Square","lat":42.387928,"lng":-71.096766},{"id":"place-esomr","parentId":"place-esomr","name":"East Somerville","lat":42.379467,"lng":-71.086625},{"id":"place-lech","parentId":"place-lech","name":"Lechmere","lat":42.371572,"lng":-71.076584},{"id":"place-spmnl","parentId":"place-spmnl","name":"Science Park/West End","lat":42.366664,"lng":-71.067666},{"id":"place-north","parentId":"place-north","name":"North Station","lat":42.365577,"lng":-71.06129},{"id":"place-haecl","parentId":"place-haecl","name":"Haymarket","lat":42.363021,"lng":-71.05829},{"id":"place-gover","parentId":"place-gover","name":"Government Center","lat":42.359705,"lng":-71.059215},{"id":"place-pktrm","parentId":"place-pktrm","name":"Park Street","lat":42.3563946,"lng":-71.0624242},{"id":"place-boyls","parentId":"place-boyls","name":"Boylston","lat":42.35302,"lng":-71.06459},{"id":"place-armnl","parentId":"place-armnl","name":"Arlington","lat":42.351902,"lng":-71.070893},{"id":"place-coecl","parentId":"place-coecl","name":"Copley","lat":42.349974,"lng":-71.077447},{"id":"place-prmnl","parentId":"place-prmnl","name":"Prudential","lat":42.34557,"lng":-71.081696},{"id":"place-symcl","parentId":"place-symcl","name":"Symphony","lat":42.342687,"lng":-71.085056},{"id":"place-nuniv","parentId":"place-nuniv","name":"Northeastern University","lat":42.340401,"lng":-71.088806},{"id":"place-mfa","parentId":"place-mfa","name":"Museum of Fine Arts","lat":42.337711,"lng":-71.095512},{"id":"place-lngmd","parentId":"place-lngmd","name":"Longwood Medical Area","lat":42.33596,"lng":-71.100052},{"id":"place-brmnl","parentId":"place-brmnl","name":"Brigham Circle","lat":42.334229,"lng":-71.104609},{"id":"place-fenwd","parentId":"place-fenwd","name":"Fenwood Road","lat":42.333706,"lng":-71.105728},{"id":"place-mispk","parentId":"place-mispk","name":"Mission Park","lat":42.333195,"lng":-71.109756},{"id":"place-rvrwy","parentId":"place-rvrwy","name":"Riverway","lat":42.331684,"lng":-71.111931},{"id":"place-bckhl","parentId":"place-bckhl","name":"Back of the Hill","lat":42.330139,"lng":-71.111313},{"id":"place-hsmnl","parentId":"place-hsmnl","name":"Heath Street","lat":42.328316,"lng":-71.110252}]},{"routeId":"Green-E","directionId":1,"stops":[{"id":"place-hsmnl","parentId":"place-hsmnl","name":"Heath Street","lat":42.328316,"lng":-71.110252},{"id":"place-bckhl","parentId":"place-bckhl","name":"Back of the Hill","lat":42.330139,"lng":-71.111313},{"id":"place-rvrwy","parentId":"place-rvrwy","name":"Riverway","lat":42.331684,"lng":-71.111931},{"id":"place-mispk","parentId":"place-mispk","name":"Mission Park","lat":42.333195,"lng":-71.109756},{"id":"place-fenwd","parentId":"place-fenwd","name":"Fenwood Road","lat":42.333706,"lng":-71.105728},{"id":"place-brmnl","parentId":"place-brmnl","name":"Brigham Circle","lat":42.334229,"lng":-71.104609},{"id":"place-lngmd","parentId":"place-lngmd","name":"Longwood Medical Area","lat":42.33596,"lng":-71.100052},{"id":"place-mfa","parentId":"place-mfa","name":"Museum of Fine Arts","lat":42.337711,"lng":-71.095512},{"id":"place-nuniv","parentId":"place-nuniv","name":"Northeastern University","lat":42.340401,"lng":-71.088806},{"id":"place-symcl","parentId":"place-symcl","name":"Symphony","lat":42.342687,"lng":-71.085056},{"id":"place-prmnl","parentId":"place-prmnl","name":"Prudential","lat":42.34557,"lng":-71.081696},{"id":"place-coecl","parentId":"place-coecl","name":"Copley","lat":42.349974,"lng":-71.077447},{"id":"place-armnl","parentId":"place-armnl","name":"Arlington","lat":42.351902,"lng":-71.070893},{"id":"place-boyls","parentId":"place-boyls","name":"Boylston","lat":42.35302,"lng":-71.06459},{"id":"place-pktrm","parentId":"place-pktrm","name":"Park Street","lat":42.3563946,"lng":-71.0624242},{"id":"place-gover","parentId":"place-gover","name":"Government Center","lat":42.359705,"lng":-71.059215},{"id":"place-haecl","parentId":"place-haecl","name":"Haymarket","lat":42.363021,"lng":-71.05829},{"id":"place-north","parentId":"place-north","name":"North Station","lat":42.365577,"lng":-71.06129},{"id":"place-spmnl","parentId":"place-spmnl","name":"Science Park/West End","lat":42.366664,"lng":-71.067666},{"id":"place-lech","parentId":"place-lech","name":"Lechmere","lat":42.371572,"lng":-71.076584},{"id":"place-esomr","parentId":"place-esomr","name":"East Somerville","lat":42.379467,"lng":-71.086625},{"id":"place-gilmn","parentId":"place-gilmn","name":"Gilman Square","lat":42.387928,"lng":-71.096766},{"id":"place-mgngl","parentId":"place-mgngl","name":"Magoun Square","lat":42.393682,"lng":-71.1063879},{"id":"place-balsq","parentId":"place-balsq","name":"Ball Square","lat":42.399889,"lng":-71.111003},{"id":"place-mdftf","parentId":"place-mdftf","name":"Medford/Tufts","lat":42.407975,"lng":-71.117044}]}]